{
  "cities": [
    {
      "cityName": "Lisbon",
      "country": "Portugal",
      "emoji": "ðŸ‡µðŸ‡¹",
      "date": "2027-10-31T15:59:59.138Z",
      "notes": "My favorite city so far!",
      "position": {
        "lat": 38.727881642324164,
        "lng": -9.140900099907554
      },
      "id": "73930385"
    },
    {
      "cityName": "Madrid",
      "country": "Spain",
      "emoji": "ðŸ‡ªðŸ‡¸",
      "date": "2027-07-15T08:22:53.976Z",
      "notes": "",
      "position": {
        "lat": 40.46635901755316,
        "lng": -3.7133789062500004
      },
      "id": "17806751"
    },
    {
      "cityName": "Berlin",
      "country": "Germany",
      "emoji": "ðŸ‡©ðŸ‡ª",
      "date": "2027-02-12T09:24:11.863Z",
      "notes": "Amazing ðŸ˜ƒ",
      "position": {
        "lat": 52.53586782505711,
        "lng": 13.376933665713324
      },
      "id": "98443197"
    },
    {
      "cityName": "Tokyo",
      "country": "Japan",
      "emoji": "ðŸ‡¯ðŸ‡µ",
      "date": "2027-05-20T12:45:30.000Z",
      "notes": "A bustling metropolis",
      "position": {
        "lat": 35.682839,
        "lng": 139.759455
      },
      "id": "12345678"
    },
    {
      "cityName": "Perth",
      "country": "Australia",
      "emoji": "ðŸ‡¦ðŸ‡º",
      "date": "2027-12-21T09:00:00.000Z",
      "notes": "Beautiful beaches",
      "position": {
        "lat": -31.953512,
        "lng": 115.857048
      },
      "id": "11223345"
    },
    {
      "id": "20755818",
      "cityName": "London",
      "country": "United Kingdom of Great Britain and Northern Ireland (the)",
      "date": "2024-10-29T22:45:54.000Z",
      "notes": "rtrthfh",
      "emoji": "ðŸ‡¬ðŸ‡§",
      "position": {
        "lat": 51.5564754566401,
        "lng": -0.3833198547363282
      }
    }
  ]
}